2020-06-25 13:35:54.906 DEBUG    __main__ ROBOT Speed 0.280 0.152 0.288 0.188
2020-06-25 13:35:54.922 DEBUG    __main__ ROBOT Power  0.484  0.079    0.476  0.045
2020-06-25 13:35:55.475 DEBUG    __main__ GPS $GNRMC,113555.00,A,5949.00415,N,01021.69488,E,0.206,,250620,,,R,V*0E
2020-06-25 13:35:55.476 DEBUG    __main__ GPS $GNVTG,,T,,M,0.206,N,0.382,K,D*35
2020-06-25 13:35:55.476 DEBUG    __main__ GPS $GNGGA,113555.00,5949.00415,N,01021.69488,E,4,12,0.71,193.6,M,39.4,M,14.0,3968*50
2020-06-25 13:35:55.478 DEBUG    play   STATE 17.8448 3.01294 0.575764 0.108851
2020-06-25 13:35:55.606 INFO     control Starting 1593084955.47888 LineControl(LINESTRING (17.84806248474866 2.9, 18.90644469081085 2.9))
2020-06-25 13:35:55.608 WARNING  asyncio Executing <Task pending name='Task-1' coro=<realtime_control() running at .\record.py:253> wait_for=<Future pending cb=[<TaskWakeupMethWrapper object at 0x10C37F88>()] created at C:\Program Files (x86)\Python38-32\lib\asyncio\base_events.py:422> cb=[_run_until_complete_cb() at C:\Program Files (x86)\Python38-32\lib\asyncio\base_events.py:184] created at C:\Program Files (x86)\Python38-32\lib\asyncio\base_events.py:595> took 0.125 seconds
2020-06-25 13:35:55.608 DEBUG    __main__ Sending controld: t 0.00
2020-06-25 13:35:55.609 DEBUG    __main__ Sending controld: r 14.32
2020-06-25 13:35:55.610 DEBUG    __main__ Sending controld: CUT 20.00
2020-06-25 13:35:55.610 DEBUG    __main__ Sending controld: heartbeat
2020-06-25 13:35:55.735 DEBUG    __main__ ROBOT Control t 0.00
2020-06-25 13:35:55.759 DEBUG    __main__ ROBOT Control r 14.32
2020-06-25 13:35:55.761 DEBUG    __main__ ROBOT Control heartbeat
2020-06-25 13:35:55.898 DEBUG    __main__ ROBOT Revs 43.39 43.27
2020-06-25 13:35:55.906 DEBUG    __main__ ROBOT Speed 0.321 0.284 0.290 0.200
2020-06-25 13:35:55.917 DEBUG    __main__ ROBOT Power  0.242  0.024    0.271  0.105
2020-06-25 13:35:56.475 DEBUG    __main__ GPS $GNRMC,113556.00,A,5949.00420,N,01021.69495,E,0.127,,250620,,,R,V*07
2020-06-25 13:35:56.484 DEBUG    __main__ GPS $GNVTG,,T,,M,0.127,N,0.235,K,D*38
2020-06-25 13:35:56.498 DEBUG    __main__ GPS $GNGGA,113556.00,5949.00420,N,01021.69495,E,4,12,0.60,193.6,M,39.4,M,6.0,3968*6A
2020-06-25 13:35:56.501 DEBUG    play   STATE 17.8967 3.0574 0.347718 0.0383008
2020-06-25 13:35:56.640 WARNING  asyncio Executing <Task pending name='Task-1' coro=<realtime_control() running at .\record.py:253> wait_for=<Future pending cb=[<TaskWakeupMethWrapper object at 0x10E9D118>()] created at C:\Program Files (x86)\Python38-32\lib\asyncio\base_events.py:422> cb=[_run_until_complete_cb() at C:\Program Files (x86)\Python38-32\lib\asyncio\base_events.py:184] created at C:\Program Files (x86)\Python38-32\lib\asyncio\base_events.py:595> took 0.140 seconds
2020-06-25 13:35:56.641 DEBUG    __main__ Sending controld: t 0.00
2020-06-25 13:35:56.642 DEBUG    __main__ Sending controld: r 14.32
2020-06-25 13:35:56.643 DEBUG    __main__ Sending controld: CUT 20.00
2020-06-25 13:35:56.643 DEBUG    __main__ Sending controld: heartbeat
2020-06-25 13:35:56.682 DEBUG    __main__ ROBOT Control t 0.00
2020-06-25 13:35:56.708 DEBUG    __main__ ROBOT Control r 14.32
2020-06-25 13:35:56.712 DEBUG    __main__ ROBOT Control heartbeat
2020-06-25 13:35:56.924 DEBUG    __main__ ROBOT Revs 43.44 43.47
2020-06-25 13:35:56.924 DEBUG    __main__ ROBOT Speed 0.115 -0.041 0.129 -0.066
2020-06-25 13:35:56.925 DEBUG    __main__ ROBOT Power  0.227 -0.047    0.214 -0.023
2020-06-25 13:35:57.467 DEBUG    __main__ GPS $GNRMC,113557.00,A,5949.00421,N,01021.69495,E,0.038,,250620,,,R,V*08
2020-06-25 13:35:57.467 DEBUG    __main__ GPS $GNVTG,,T,,M,0.038,N,0.071,K,D*35
2020-06-25 13:35:57.468 DEBUG    __main__ GPS $GNGGA,113557.00,5949.00421,N,01021.69495,E,4,12,0.61,193.6,M,39.4,M,7.0,3968*6A
2020-06-25 13:35:57.470 DEBUG    play   STATE 17.9076 3.08591 0.149364 0.0119079
2020-06-25 13:35:57.593 WARNING  asyncio Executing <Task pending name='Task-1' coro=<realtime_control() running at .\record.py:253> wait_for=<Future pending cb=[<TaskWakeupMethWrapper object at 0x10E9D658>()] created at C:\Program Files (x86)\Python38-32\lib\asyncio\base_events.py:422> cb=[_run_until_complete_cb() at C:\Program Files (x86)\Python38-32\lib\asyncio\base_events.py:184] created at C:\Program Files (x86)\Python38-32\lib\asyncio\base_events.py:595> took 0.125 seconds
2020-06-25 13:35:57.594 DEBUG    __main__ Sending controld: t 0.00
2020-06-25 13:35:57.596 DEBUG    __main__ Sending controld: r 14.32
2020-06-25 13:35:57.596 DEBUG    __main__ Sending controld: CUT 20.00
2020-06-25 13:35:57.597 DEBUG    __main__ Sending controld: heartbeat
2020-06-25 13:35:57.633 DEBUG    __main__ ROBOT Control t 0.00
2020-06-25 13:35:57.646 DEBUG    __main__ ROBOT Control r 14.32
2020-06-25 13:35:57.660 DEBUG    __main__ ROBOT Control heartbeat
2020-06-25 13:35:57.892 DEBUG    __main__ ROBOT Revs 43.37 43.56
2020-06-25 13:35:57.897 DEBUG    __main__ ROBOT Speed 0.041 -0.078 0.108 -0.100
2020-06-25 13:35:57.911 DEBUG    __main__ ROBOT Power  0.369 -0.139    0.305 -0.118
2020-06-25 13:35:58.476 DEBUG    __main__ GPS $GNRMC,113558.00,A,5949.00421,N,01021.69496,E,0.021,,250620,,,R,V*0C
2020-06-25 13:35:58.477 DEBUG    __main__ GPS $GNVTG,,T,,M,0.021,N,0.039,K,D*31
2020-06-25 13:35:58.477 DEBUG    __main__ GPS $GNGGA,113558.00,5949.00421,N,01021.69496,E,4,12,0.62,193.6,M,39.4,M,3.0,3968*61
2020-06-25 13:35:58.479 DEBUG    play   STATE 17.9152 3.08671 -0.102691 0.00687023
2020-06-25 13:35:58.625 WARNING  asyncio Executing <Task pending name='Task-1' coro=<realtime_control() running at .\record.py:253> wait_for=<Future pending cb=[<TaskWakeupMethWrapper object at 0x10E9D9B8>()] created at C:\Program Files (x86)\Python38-32\lib\asyncio\base_events.py:422> cb=[_run_until_complete_cb() at C:\Program Files (x86)\Python38-32\lib\asyncio\base_events.py:184] created at C:\Program Files (x86)\Python38-32\lib\asyncio\base_events.py:595> took 0.141 seconds
2020-06-25 13:35:58.626 DEBUG    __main__ Sending controld: t 0.00
2020-06-25 13:35:58.627 DEBUG    __main__ Sending controld: r 14.32
2020-06-25 13:35:58.628 DEBUG    __main__ Sending controld: CUT 20.00
2020-06-25 13:35:58.628 DEBUG    __main__ Sending controld: heartbeat
2020-06-25 13:35:58.673 DEBUG    __main__ ROBOT Control t 0.00
2020-06-25 13:35:58.702 DEBUG    __main__ ROBOT Control r 14.32
2020-06-25 13:35:58.705 DEBUG    __main__ ROBOT Control heartbeat
2020-06-25 13:35:58.889 DEBUG    __main__ ROBOT Revs 43.27 43.67
2020-06-25 13:35:58.895 DEBUG    __main__ ROBOT Speed 0.136 -0.152 0.105 -0.104
2020-06-25 13:35:58.910 DEBUG    __main__ ROBOT Power  0.285 -0.079    0.314 -0.125
2020-06-25 13:35:59.483 DEBUG    __main__ GPS $GNRMC,113559.00,A,5949.00421,N,01021.69496,E,0.020,,250620,,,R,V*0C
2020-06-25 13:35:59.484 DEBUG    __main__ GPS $GNVTG,,T,,M,0.020,N,0.037,K,D*3E
2020-06-25 13:35:59.484 DEBUG    __main__ GPS $GNGGA,113559.00,5949.00421,N,01021.69496,E,4,12,0.62,193.5,M,39.4,M,1.0,3968*61
2020-06-25 13:35:59.486 DEBUG    play   STATE 17.9154 3.08666 -0.354364 0.000113016
2020-06-25 13:35:59.615 WARNING  asyncio Executing <Task pending name='Task-1' coro=<realtime_control() running at .\record.py:253> wait_for=<Future pending cb=[<TaskWakeupMethWrapper object at 0x10EE2310>()] created at C:\Program Files (x86)\Python38-32\lib\asyncio\base_events.py:422> cb=[_run_until_complete_cb() at C:\Program Files (x86)\Python38-32\lib\asyncio\base_events.py:184] created at C:\Program Files (x86)\Python38-32\lib\asyncio\base_events.py:595> took 0.125 seconds
2020-06-25 13:35:59.616 DEBUG    __main__ Sending controld: t 0.10
2020-06-25 13:35:59.617 DEBUG    __main__ Sending controld: r 14.32
2020-06-25 13:35:59.618 DEBUG    __main__ Sending controld: CUT 20.00
2020-06-25 13:35:59.618 DEBUG    __main__ Sending controld: heartbeat
2020-06-25 13:35:59.744 DEBUG    __main__ ROBOT Control t 0.10
2020-06-25 13:35:59.745 DEBUG    __main__ ROBOT Control r 14.32
2020-06-25 13:35:59.745 DEBUG    __main__ ROBOT Control heartbeat
2020-06-25 13:35:59.912 DEBUG    __main__ ROBOT Revs 43.18 43.77
2020-06-25 13:35:59.913 DEBUG    __main__ ROBOT Speed 0.053 -0.066 0.106 -0.104
2020-06-25 13:35:59.913 DEBUG    __main__ ROBOT Power  0.399 -0.260    0.348 -0.223
2020-06-25 13:36:00.486 DEBUG    __main__ GPS $GNRMC,113600.00,A,5949.00421,N,01021.69496,E,0.020,,250620,,,R,V*03
2020-06-25 13:36:00.487 DEBUG    __main__ GPS $GNVTG,,T,,M,0.020,N,0.036,K,D*3F
2020-06-25 13:36:00.487 DEBUG    __main__ GPS $GNGGA,113600.00,5949.00421,N,01021.69496,E,4,12,0.66,193.5,M,39.4,M,1.0,3968*6A
2020-06-25 13:36:00.489 DEBUG    play   STATE 17.9154 3.08665 -0.604968 5.01981e-06
2020-06-25 13:36:00.625 WARNING  asyncio Executing <Task pending name='Task-1' coro=<realtime_control() running at .\record.py:253> wait_for=<Future pending cb=[<TaskWakeupMethWrapper object at 0x10EE2DC0>()] created at C:\Program Files (x86)\Python38-32\lib\asyncio\base_events.py:422> cb=[_run_until_complete_cb() at C:\Program Files (x86)\Python38-32\lib\asyncio\base_events.py:184] created at C:\Program Files (x86)\Python38-32\lib\asyncio\base_events.py:595> took 0.141 seconds
2020-06-25 13:36:00.627 DEBUG    __main__ Sending controld: t 3.28
2020-06-25 13:36:00.628 DEBUG    __main__ Sending controld: r 14.32
2020-06-25 13:36:00.628 DEBUG    __main__ Sending controld: CUT 20.00
2020-06-25 13:36:00.629 DEBUG    __main__ Sending controld: heartbeat
2020-06-25 13:36:00.676 DEBUG    __main__ ROBOT Control t 3.28
2020-06-25 13:36:00.692 DEBUG    __main__ ROBOT Control r 14.32
2020-06-25 13:36:00.697 DEBUG    __main__ ROBOT Control heartbeat
2020-06-25 13:36:00.889 DEBUG    __main__ ROBOT Revs 43.14 43.83
2020-06-25 13:36:00.895 DEBUG    __main__ ROBOT Speed 0.140 -0.058 0.137 -0.073
2020-06-25 13:36:00.909 DEBUG    __main__ ROBOT Power  0.583 -0.480    0.586 -0.466
2020-06-25 13:36:01.518 DEBUG    __main__ GPS $GNRMC,113601.00,A,5949.00421,N,01021.69496,E,0.010,,250620,,,R,V*01
2020-06-25 13:36:01.519 DEBUG    __main__ GPS $GNVTG,,T,,M,0.010,N,0.018,K,D*30
2020-06-25 13:36:01.519 DEBUG    __main__ GPS $GNGGA,113601.00,5949.00421,N,01021.69496,E,4,12,0.66,193.6,M,39.4,M,1.0,3968*68
2020-06-25 13:36:01.521 DEBUG    play   STATE 17.9155 3.08657 -0.861628 0.00198132
2020-06-25 13:36:01.664 WARNING  asyncio Executing <Task pending name='Task-1' coro=<realtime_control() running at .\record.py:253> wait_for=<Future pending cb=[<TaskWakeupMethWrapper object at 0x10EE2E68>()] created at C:\Program Files (x86)\Python38-32\lib\asyncio\base_events.py:422> cb=[_run_until_complete_cb() at C:\Program Files (x86)\Python38-32\lib\asyncio\base_events.py:184] created at C:\Program Files (x86)\Python38-32\lib\asyncio\base_events.py:595> took 0.141 seconds
2020-06-25 13:36:01.665 DEBUG    __main__ Sending controld: t 14.38
2020-06-25 13:36:01.666 DEBUG    __main__ Sending controld: r 2.94
2020-06-25 13:36:01.667 DEBUG    __main__ Sending controld: CUT 20.00
2020-06-25 13:36:01.667 DEBUG    __main__ Sending controld: heartbeat
2020-06-25 13:36:01.699 DEBUG    __main__ ROBOT Control t 14.38
2020-06-25 13:36:01.726 DEBUG    __main__ ROBOT Control r 2.94
2020-06-25 13:36:01.732 DEBUG    __main__ ROBOT Control heartbeat
2020-06-25 13:36:01.884 DEBUG    __main__ ROBOT Battery 12.082
2020-06-25 13:36:01.886 DEBUG    play   BATTERY Battery(12.082)
2020-06-25 13:36:01.891 DEBUG    __main__ ROBOT Revs 43.11 43.99
2020-06-25 13:36:01.899 DEBUG    __main__ ROBOT Speed 0.173 0.000 0.252 0.092
2020-06-25 13:36:01.910 DEBUG    __main__ ROBOT Power  0.741 -0.370    0.664 -0.460
2020-06-25 13:36:02.485 DEBUG    __main__ GPS $GNRMC,113602.00,A,5949.00421,N,01021.69496,E,0.037,,250620,,,R,V*07
2020-06-25 13:36:02.485 DEBUG    __main__ GPS $GNVTG,,T,,M,0.037,N,0.068,K,D*32
2020-06-25 13:36:02.486 DEBUG    __main__ GPS $GNGGA,113602.00,5949.00421,N,01021.69496,E,4,12,0.66,193.6,M,39.4,M,1.0,3968*6B
2020-06-25 13:36:02.488 DEBUG    play   STATE 17.9207 3.08041 -0.910484 0.014576
2020-06-25 13:36:02.624 WARNING  asyncio Executing <Task pending name='Task-1' coro=<realtime_control() running at .\record.py:253> wait_for=<Future pending cb=[<TaskWakeupMethWrapper object at 0x10EE23E8>()] created at C:\Program Files (x86)\Python38-32\lib\asyncio\base_events.py:422> cb=[_run_until_complete_cb() at C:\Program Files (x86)\Python38-32\lib\asyncio\base_events.py:184] created at C:\Program Files (x86)\Python38-32\lib\asyncio\base_events.py:595> took 0.141 seconds
2020-06-25 13:36:02.625 DEBUG    __main__ Sending controld: t 14.69
2020-06-25 13:36:02.627 DEBUG    __main__ Sending controld: r -2.06
2020-06-25 13:36:02.628 DEBUG    __main__ Sending controld: CUT 20.00
2020-06-25 13:36:02.628 DEBUG    __main__ Sending controld: heartbeat
2020-06-25 13:36:02.663 DEBUG    __main__ ROBOT Control t 14.69
2020-06-25 13:36:02.879 DEBUG    __main__ ROBOT Revs 43.24 44.30
2020-06-25 13:36:02.890 DEBUG    __main__ ROBOT Speed 0.461 0.305 0.373 0.315
2020-06-25 13:36:02.897 DEBUG    __main__ ROBOT Power  0.686  0.048    0.773  0.038
2020-06-25 13:36:03.488 DEBUG    __main__ GPS $GNRMC,113603.00,A,5949.00423,N,01021.69511,E,0.231,,250620,,,R,V*0E
2020-06-25 13:36:03.488 DEBUG    __main__ GPS $GNVTG,,T,,M,0.231,N,0.427,K,D*39
2020-06-25 13:36:03.489 DEBUG    __main__ GPS $GNGGA,113603.00,5949.00423,N,01021.69511,E,4,12,0.63,193.6,M,39.4,M,2.0,3968*60
2020-06-25 13:36:03.491 DEBUG    play   STATE 18.0062 2.99127 -0.909161 0.12475
2020-06-25 13:36:03.615 WARNING  asyncio Executing <Task pending name='Task-1' coro=<realtime_control() running at .\record.py:253> wait_for=<Future pending cb=[<TaskWakeupMethWrapper object at 0x0D14EA00>()] created at C:\Program Files (x86)\Python38-32\lib\asyncio\base_events.py:422> cb=[_run_until_complete_cb() at C:\Program Files (x86)\Python38-32\lib\asyncio\base_events.py:184] created at C:\Program Files (x86)\Python38-32\lib\asyncio\base_events.py:595> took 0.125 seconds
2020-06-25 13:36:03.615 DEBUG    __main__ Sending controld: t 0.04
2020-06-25 13:36:03.617 DEBUG    __main__ Sending controld: r -14.32
2020-06-25 13:36:03.617 DEBUG    __main__ Sending controld: CUT 20.00
2020-06-25 13:36:03.618 DEBUG    __main__ Sending controld: heartbeat
2020-06-25 13:36:03.879 DEBUG    __main__ ROBOT Revs 43.57 44.75
2020-06-25 13:36:03.884 DEBUG    __main__ ROBOT Speed 0.366 0.300 0.393 0.348
2020-06-25 13:36:03.899 DEBUG    __main__ ROBOT Power  0.494  0.146    0.468  0.100
2020-06-25 13:36:04.489 DEBUG    __main__ GPS $GNRMC,113604.00,A,5949.00422,N,01021.69523,E,0.230,,250620,,,R,V*08
2020-06-25 13:36:04.490 DEBUG    __main__ GPS $GNVTG,,T,,M,0.230,N,0.426,K,D*39
2020-06-25 13:36:04.490 DEBUG    __main__ GPS $GNGGA,113604.00,5949.00422,N,01021.69523,E,4,12,0.62,193.6,M,39.4,M,2.0,3968*66
2020-06-25 13:36:04.492 DEBUG    play   STATE 18.0943 2.93753 -0.852813 0.113931
2020-06-25 13:36:04.632 WARNING  asyncio Executing <Task pending name='Task-1' coro=<realtime_control() running at .\record.py:253> wait_for=<Future pending cb=[<TaskWakeupMethWrapper object at 0x1117AE50>()] created at C:\Program Files (x86)\Python38-32\lib\asyncio\base_events.py:422> cb=[_run_until_complete_cb() at C:\Program Files (x86)\Python38-32\lib\asyncio\base_events.py:184] created at C:\Program Files (x86)\Python38-32\lib\asyncio\base_events.py:595> took 0.141 seconds
2020-06-25 13:36:04.633 DEBUG    __main__ Sending controld: t 0.00
2020-06-25 13:36:04.634 DEBUG    __main__ Sending controld: r -14.32
2020-06-25 13:36:04.635 DEBUG    __main__ Sending controld: CUT 20.00
2020-06-25 13:36:04.635 DEBUG    __main__ Sending controld: heartbeat
2020-06-25 13:36:04.824 DEBUG    __main__ ROBOT Control r -2.06
2020-06-25 13:36:04.835 DEBUG    __main__ ROBOT Control heartbeat
2020-06-25 13:36:04.846 DEBUG    __main__ ROBOT Control t 0.04
2020-06-25 13:36:04.861 DEBUG    __main__ ROBOT Control r -14.32
2020-06-25 13:36:04.870 DEBUG    __main__ ROBOT Control heartbeat
2020-06-25 13:36:04.881 DEBUG    __main__ ROBOT Control t 0.00
2020-06-25 13:36:04.888 DEBUG    __main__ ROBOT Control r -14.32
2020-06-25 13:36:04.899 DEBUG    __main__ ROBOT Control heartbeat
2020-06-25 13:36:04.905 DEBUG    __main__ ROBOT Revs 43.93 45.15
2020-06-25 13:36:04.918 DEBUG    __main__ ROBOT Speed 0.383 0.342 0.345 0.329
2020-06-25 13:36:04.925 DEBUG    __main__ ROBOT Power  0.377  0.029    0.414  0.040
2020-06-25 13:36:05.476 DEBUG    __main__ GPS $GNRMC,113605.00,A,5949.00421,N,01021.69538,E,0.160,,250620,,,R,V*06
2020-06-25 13:36:05.477 DEBUG    __main__ GPS $GNVTG,,T,,M,0.160,N,0.296,K,D*32
2020-06-25 13:36:05.478 DEBUG    __main__ GPS $GNGGA,113605.00,5949.00421,N,01021.69538,E,4,12,0.58,193.6,M,39.4,M,1.0,3968*64
2020-06-25 13:36:05.480 DEBUG    play   STATE 18.1945 2.90921 -0.441728 0.0453609
2020-06-25 13:36:05.604 WARNING  asyncio Executing <Task pending name='Task-1' coro=<realtime_control() running at .\record.py:253> wait_for=<Future pending cb=[<TaskWakeupMethWrapper object at 0x10E94310>()] created at C:\Program Files (x86)\Python38-32\lib\asyncio\base_events.py:422> cb=[_run_until_complete_cb() at C:\Program Files (x86)\Python38-32\lib\asyncio\base_events.py:184] created at C:\Program Files (x86)\Python38-32\lib\asyncio\base_events.py:595> took 0.125 seconds
2020-06-25 13:36:05.605 DEBUG    __main__ Sending controld: t 0.69
2020-06-25 13:36:05.606 DEBUG    __main__ Sending controld: r -14.32
2020-06-25 13:36:05.606 DEBUG    __main__ Sending controld: CUT 20.00
2020-06-25 13:36:05.607 DEBUG    __main__ Sending controld: heartbeat
2020-06-25 13:36:05.653 DEBUG    __main__ ROBOT Control t 0.69
2020-06-25 13:36:05.767 DEBUG    __main__ ROBOT Control r -14.32
2020-06-25 13:36:05.768 DEBUG    __main__ ROBOT Control heartbeat
2020-06-25 13:36:05.899 DEBUG    __main__ ROBOT Revs 44.12 45.31
2020-06-25 13:36:05.904 DEBUG    __main__ ROBOT Speed -0.004 0.115 -0.041 0.140
2020-06-25 13:36:05.905 DEBUG    __main__ ROBOT Power -0.020  0.098    0.015  0.074
2020-06-25 13:36:06.477 DEBUG    __main__ GPS $GNRMC,113606.00,A,5949.00422,N,01021.69540,E,0.026,,250620,,,R,V*0A
2020-06-25 13:36:06.478 DEBUG    __main__ GPS $GNVTG,,T,,M,0.026,N,0.047,K,D*3F
2020-06-25 13:36:06.478 DEBUG    __main__ GPS $GNGGA,113606.00,5949.00422,N,01021.69540,E,4,12,0.57,193.6,M,39.4,M,1.0,3968*64
2020-06-25 13:36:06.482 DEBUG    play   STATE 18.3065 2.96615 0.0603688 0.0543528
2020-06-25 13:36:06.604 WARNING  asyncio Executing <Task pending name='Task-1' coro=<realtime_control() running at .\record.py:253> wait_for=<Future pending cb=[<TaskWakeupMethWrapper object at 0x1117A2C8>()] created at C:\Program Files (x86)\Python38-32\lib\asyncio\base_events.py:422> cb=[_run_until_complete_cb() at C:\Program Files (x86)\Python38-32\lib\asyncio\base_events.py:184] created at C:\Program Files (x86)\Python38-32\lib\asyncio\base_events.py:595> took 0.125 seconds
2020-06-25 13:36:06.605 DEBUG    __main__ Sending controld: t 6.76
2020-06-25 13:36:06.606 DEBUG    __main__ Sending controld: r 12.78
2020-06-25 13:36:06.607 DEBUG    __main__ Sending controld: CUT 20.00
2020-06-25 13:36:06.607 DEBUG    __main__ Sending controld: heartbeat
2020-06-25 13:36:06.639 DEBUG    __main__ ROBOT Control t 6.76
2020-06-25 13:36:06.659 DEBUG    __main__ ROBOT Control r 12.78
2020-06-25 13:36:06.675 DEBUG    __main__ ROBOT Control heartbeat
2020-06-25 13:36:06.867 DEBUG    __main__ ROBOT Revs 44.22 45.27
2020-06-25 13:36:06.876 DEBUG    __main__ ROBOT Speed 0.000 0.115 0.043 0.115
2020-06-25 13:36:06.884 DEBUG    __main__ ROBOT Power  0.020  0.222   -0.021  0.222
2020-06-25 13:36:07.479 DEBUG    __main__ GPS $GNRMC,113607.00,A,5949.00421,N,01021.69544,E,0.061,,250620,,,R,V*0F
2020-06-25 13:36:07.480 DEBUG    __main__ GPS $GNVTG,,T,,M,0.061,N,0.113,K,D*3C
2020-06-25 13:36:07.481 DEBUG    __main__ GPS $GNGGA,113607.00,5949.00421,N,01021.69544,E,4,12,0.57,193.6,M,39.4,M,1.0,3968*62
2020-06-25 13:36:07.483 DEBUG    play   STATE 18.3424 2.95804 -0.226863 0.0371632
2020-06-25 13:36:07.606 WARNING  asyncio Executing <Task pending name='Task-1' coro=<realtime_control() running at .\record.py:253> wait_for=<Future pending cb=[<TaskWakeupMethWrapper object at 0x10E973B8>()] created at C:\Program Files (x86)\Python38-32\lib\asyncio\base_events.py:422> cb=[_run_until_complete_cb() at C:\Program Files (x86)\Python38-32\lib\asyncio\base_events.py:184] created at C:\Program Files (x86)\Python38-32\lib\asyncio\base_events.py:595> took 0.125 seconds
2020-06-25 13:36:07.607 DEBUG    __main__ Sending controld: t 12.78
2020-06-25 13:36:07.608 DEBUG    __main__ Sending controld: r -5.73
2020-06-25 13:36:07.609 DEBUG    __main__ Sending controld: CUT 20.00
2020-06-25 13:36:07.609 DEBUG    __main__ Sending controld: heartbeat
2020-06-25 13:36:07.645 DEBUG    __main__ ROBOT Control t 12.78
2020-06-25 13:36:07.670 DEBUG    __main__ ROBOT Control r -5.73
2020-06-25 13:36:07.685 DEBUG    __main__ ROBOT Control heartbeat
2020-06-25 13:36:07.862 DEBUG    __main__ ROBOT Revs 44.36 45.39
2020-06-25 13:36:07.871 DEBUG    __main__ ROBOT Speed 0.165 0.173 0.248 0.186
2020-06-25 13:36:07.878 DEBUG    __main__ ROBOT Power  0.331  0.089    0.250  0.077
2020-06-25 13:36:08.540 DEBUG    __main__ GPS $GNRMC,113608.00,A,5949.00421,N,01021.69552,E,0.211,,250620,,,R,V*02
2020-06-25 13:36:08.541 DEBUG    __main__ GPS $GNVTG,,T,,M,0.211,N,0.390,K,D*30
2020-06-25 13:36:08.541 DEBUG    __main__ GPS $GNGGA,113608.00,5949.00421,N,01021.69552,E,4,12,0.62,193.6,M,39.4,M,1.0,3968*6C
2020-06-25 13:36:08.543 DEBUG    play   STATE 18.4421 2.93049 -0.136686 0.101647
2020-06-25 13:36:08.669 WARNING  asyncio Executing <Task pending name='Task-1' coro=<realtime_control() running at .\record.py:253> wait_for=<Future pending cb=[<TaskWakeupMethWrapper object at 0x10EF3238>()] created at C:\Program Files (x86)\Python38-32\lib\asyncio\base_events.py:422> cb=[_run_until_complete_cb() at C:\Program Files (x86)\Python38-32\lib\asyncio\base_events.py:184] created at C:\Program Files (x86)\Python38-32\lib\asyncio\base_events.py:595> took 0.125 seconds
2020-06-25 13:36:08.670 DEBUG    __main__ Sending controld: t 12.76
2020-06-25 13:36:08.671 DEBUG    __main__ Sending controld: r -5.76
2020-06-25 13:36:08.671 DEBUG    __main__ Sending controld: CUT 20.00
2020-06-25 13:36:08.672 DEBUG    __main__ Sending controld: heartbeat
2020-06-25 13:36:08.717 DEBUG    __main__ ROBOT Control t 12.76
2020-06-25 13:36:08.722 DEBUG    __main__ ROBOT Control r -5.76
2020-06-25 13:36:08.737 DEBUG    __main__ ROBOT Control heartbeat
2020-06-25 13:36:08.860 DEBUG    __main__ ROBOT Revs 44.62 45.65
2020-06-25 13:36:08.875 DEBUG    __main__ ROBOT Speed 0.300 0.313 0.279 0.344
2020-06-25 13:36:08.876 DEBUG    __main__ ROBOT Power  0.262  0.256    0.284  0.226
2020-06-25 13:36:09.480 DEBUG    __main__ GPS $GNRMC,113609.00,A,5949.00422,N,01021.69564,E,0.263,,250620,,,R,V*00
2020-06-25 13:36:09.481 DEBUG    __main__ GPS $GNVTG,,T,,M,0.263,N,0.487,K,D*34
2020-06-25 13:36:09.481 DEBUG    __main__ GPS $GNGGA,113609.00,5949.00422,N,01021.69564,E,4,12,0.59,193.6,M,39.4,M,1.0,3968*63
2020-06-25 13:36:09.484 DEBUG    play   STATE 18.5383 2.91292 -0.0581578 0.110997
2020-06-25 13:36:09.608 WARNING  asyncio Executing <Task pending name='Task-1' coro=<realtime_control() running at .\record.py:253> wait_for=<Future pending cb=[<TaskWakeupMethWrapper object at 0x10C2D910>()] created at C:\Program Files (x86)\Python38-32\lib\asyncio\base_events.py:422> cb=[_run_until_complete_cb() at C:\Program Files (x86)\Python38-32\lib\asyncio\base_events.py:184] created at C:\Program Files (x86)\Python38-32\lib\asyncio\base_events.py:595> took 0.125 seconds
2020-06-25 13:36:09.609 DEBUG    __main__ Sending controld: t 14.37
2020-06-25 13:36:09.610 DEBUG    __main__ Sending controld: r -2.96
2020-06-25 13:36:09.610 DEBUG    __main__ Sending controld: CUT 20.00
2020-06-25 13:36:09.611 DEBUG    __main__ Sending controld: heartbeat
2020-06-25 13:36:09.656 DEBUG    __main__ ROBOT Control t 14.37
2020-06-25 13:36:09.665 DEBUG    __main__ ROBOT Control r -2.96
2020-06-25 13:36:09.676 DEBUG    __main__ ROBOT Control heartbeat
2020-06-25 13:36:09.854 DEBUG    __main__ ROBOT Revs 44.97 45.96
2020-06-25 13:36:09.864 DEBUG    __main__ ROBOT Speed 0.239 0.354 0.304 0.372
2020-06-25 13:36:09.871 DEBUG    __main__ ROBOT Power  0.229  0.283    0.166  0.265
2020-06-25 13:36:10.480 DEBUG    __main__ GPS $GNRMC,113610.00,A,5949.00423,N,01021.69577,E,0.201,,250620,,,R,V*0F
2020-06-25 13:36:10.481 DEBUG    __main__ GPS $GNVTG,,T,,M,0.201,N,0.373,K,D*3C
2020-06-25 13:36:10.481 DEBUG    __main__ GPS $GNGGA,113610.00,5949.00423,N,01021.69577,E,4,12,0.61,193.6,M,39.4,M,1.0,3968*63
2020-06-25 13:36:10.484 DEBUG    play   STATE 18.6534 2.89244 -0.044655 0.127945
2020-06-25 13:36:10.609 WARNING  asyncio Executing <Task pending name='Task-1' coro=<realtime_control() running at .\record.py:253> wait_for=<Future pending cb=[<TaskWakeupMethWrapper object at 0x10E97598>()] created at C:\Program Files (x86)\Python38-32\lib\asyncio\base_events.py:422> cb=[_run_until_complete_cb() at C:\Program Files (x86)\Python38-32\lib\asyncio\base_events.py:184] created at C:\Program Files (x86)\Python38-32\lib\asyncio\base_events.py:595> took 0.125 seconds
2020-06-25 13:36:10.610 DEBUG    __main__ Sending controld: t 8.33
2020-06-25 13:36:10.612 DEBUG    __main__ Sending controld: r -2.69
2020-06-25 13:36:10.612 DEBUG    __main__ Sending controld: CUT 20.00
2020-06-25 13:36:10.612 DEBUG    __main__ Sending controld: heartbeat
2020-06-25 13:36:10.652 DEBUG    __main__ ROBOT Control t 8.33
2020-06-25 13:36:10.669 DEBUG    __main__ ROBOT Control r -2.69
2020-06-25 13:36:10.673 DEBUG    __main__ ROBOT Control heartbeat
2020-06-25 13:36:10.852 DEBUG    __main__ ROBOT Revs 45.33 46.24
2020-06-25 13:36:10.862 DEBUG    __main__ ROBOT Speed 0.288 0.321 0.288 0.333
2020-06-25 13:36:10.869 DEBUG    __main__ ROBOT Power  0.354  0.346    0.354  0.333
2020-06-25 13:36:11.481 DEBUG    __main__ GPS $GNRMC,113611.00,A,5949.00424,N,01021.69588,E,0.238,,250620,,,R,V*03
2020-06-25 13:36:11.482 DEBUG    __main__ GPS $GNVTG,,T,,M,0.238,N,0.442,K,D*33
2020-06-25 13:36:11.482 DEBUG    __main__ GPS $GNGGA,113611.00,5949.00424,N,01021.69588,E,4,12,0.64,193.6,M,39.4,M,1.0,3968*60
2020-06-25 13:36:11.485 DEBUG    play   STATE 18.7427 2.87926 -0.0186071 0.085182
2020-06-25 13:36:11.614 WARNING  asyncio Executing <Task pending name='Task-1' coro=<realtime_control() running at .\record.py:253> wait_for=<Future pending cb=[<TaskWakeupMethWrapper object at 0x10E9AF70>()] created at C:\Program Files (x86)\Python38-32\lib\asyncio\base_events.py:422> cb=[_run_until_complete_cb() at C:\Program Files (x86)\Python38-32\lib\asyncio\base_events.py:184] created at C:\Program Files (x86)\Python38-32\lib\asyncio\base_events.py:595> took 0.125 seconds
2020-06-25 13:36:11.614 DEBUG    __main__ Sending controld: t 6.13
2020-06-25 13:36:11.616 DEBUG    __main__ Sending controld: r -2.03
2020-06-25 13:36:11.618 DEBUG    __main__ Sending controld: CUT 20.00
2020-06-25 13:36:11.618 DEBUG    __main__ Sending controld: heartbeat
2020-06-25 13:36:11.644 DEBUG    __main__ ROBOT Control t 6.13
2020-06-25 13:36:11.864 DEBUG    __main__ ROBOT Revs 45.63 46.51
2020-06-25 13:36:11.883 DEBUG    __main__ ROBOT Speed 0.214 0.280 0.186 0.226
2020-06-25 13:36:11.884 DEBUG    __main__ ROBOT Power  0.161  0.161    0.188  0.213
2020-06-25 13:36:11.995 DEBUG    __main__ ROBOT Control r -2.03
2020-06-25 13:36:11.996 DEBUG    __main__ ROBOT Control heartbeat
2020-06-25 13:36:12.475 DEBUG    __main__ GPS $GNRMC,113612.00,A,5949.00423,N,01021.69597,E,0.138,,250620,,,R,V*0A
2020-06-25 13:36:12.476 DEBUG    __main__ GPS $GNVTG,,T,,M,0.138,N,0.256,K,D*33
2020-06-25 13:36:12.476 DEBUG    __main__ GPS $GNGGA,113612.00,5949.00423,N,01021.69597,E,4,12,0.63,193.7,M,39.4,M,1.0,3968*6C
2020-06-25 13:36:12.478 DEBUG    play   STATE 18.8189 2.84232 -0.0634209 0.0689623
2020-06-25 13:36:12.603 WARNING  asyncio Executing <Task pending name='Task-1' coro=<realtime_control() running at .\record.py:253> wait_for=<Future pending cb=[<TaskWakeupMethWrapper object at 0x1117AA30>()] created at C:\Program Files (x86)\Python38-32\lib\asyncio\base_events.py:422> cb=[_run_until_complete_cb() at C:\Program Files (x86)\Python38-32\lib\asyncio\base_events.py:184] created at C:\Program Files (x86)\Python38-32\lib\asyncio\base_events.py:595> took 0.125 seconds
2020-06-25 13:36:12.604 DEBUG    __main__ Sending controld: t 4.62
2020-06-25 13:36:12.606 DEBUG    __main__ Sending controld: r -10.82
2020-06-25 13:36:12.606 DEBUG    __main__ Sending controld: CUT 20.00
2020-06-25 13:36:12.606 DEBUG    __main__ Sending controld: heartbeat
2020-06-25 13:36:21.865 DEBUG    __main__ ROBOT Revs 45.85 46.68
2020-06-25 13:36:21.867 DEBUG    __main__ ROBOT Speed 0.165 0.202 0.147 0.178
2020-06-25 13:36:21.867 DEBUG    __main__ ROBOT Power  0.090  0.049    0.107  0.072
2020-06-25 13:36:21.867 DEBUG    __main__ ROBOT Revs 46.03 46.83
2020-06-25 13:36:21.868 DEBUG    __main__ ROBOT Speed 0.165 0.189 0.142 0.172
2020-06-25 13:36:21.868 DEBUG    __main__ ROBOT Power  0.079  0.038    0.101  0.055
2020-06-25 13:36:21.868 DEBUG    __main__ ROBOT Revs 46.17 46.96
2020-06-25 13:36:21.868 DEBUG    __main__ ROBOT Speed 0.128 0.144 0.141 0.171
2020-06-25 13:36:21.868 DEBUG    __main__ ROBOT Power  0.168  0.214    0.154  0.188
2020-06-25 13:36:21.869 DEBUG    __main__ ROBOT Revs 46.35 47.11
2020-06-25 13:36:21.869 DEBUG    __main__ ROBOT Speed 0.152 0.165 0.141 0.171
2020-06-25 13:36:21.869 DEBUG    __main__ ROBOT Power  0.078  0.152    0.089  0.145
2020-06-25 13:36:21.869 DEBUG    __main__ ROBOT Revs 46.51 47.25
2020-06-25 13:36:21.870 DEBUG    __main__ ROBOT Speed 0.144 0.156 0.141 0.171
2020-06-25 13:36:21.870 DEBUG    __main__ ROBOT Power  0.088  0.206    0.090  0.192
2020-06-25 13:36:21.870 DEBUG    __main__ ROBOT Control .
2020-06-25 13:36:21.870 DEBUG    __main__ ROBOT Revs 46.53 47.28
2020-06-25 13:36:21.871 DEBUG    __main__ ROBOT Speed 0.000 0.000 0.000 0.000
2020-06-25 13:36:21.871 DEBUG    __main__ ROBOT Power  0.000  0.000    0.082  0.196
2020-06-25 13:36:21.871 DEBUG    __main__ ROBOT Revs 46.53 47.28
2020-06-25 13:36:21.871 DEBUG    __main__ ROBOT Speed 0.000 0.000 0.000 0.000
2020-06-25 13:36:21.872 DEBUG    __main__ ROBOT Power  0.000  0.000    0.082  0.196
2020-06-25 13:36:21.872 DEBUG    __main__ ROBOT Revs 46.53 47.28
2020-06-25 13:36:21.872 DEBUG    __main__ ROBOT Speed 0.000 0.000 0.000 0.000
2020-06-25 13:36:21.872 DEBUG    __main__ ROBOT Power  0.000  0.000    0.082  0.196
2020-06-25 13:36:21.873 DEBUG    __main__ ROBOT Revs 46.53 47.28
2020-06-25 13:36:21.873 DEBUG    __main__ ROBOT Speed 0.000 0.000 0.000 0.000
2020-06-25 13:36:21.873 DEBUG    __main__ ROBOT Power  0.000  0.000    0.082  0.196
2020-06-25 13:36:21.873 DEBUG    __main__ ROBOT Heartbeat missing
2020-06-25 13:36:21.874 DEBUG    __main__ ROBOT Battery 12.167
2020-06-25 13:36:21.874 DEBUG    __main__ ROBOT Revs 46.53 47.28
2020-06-25 13:36:21.877 DEBUG    play   BATTERY Battery(12.167)
2020-06-25 13:36:21.879 DEBUG    __main__ ROBOT Speed 0.000 0.000 0.000 0.000
2020-06-25 13:36:21.879 DEBUG    __main__ ROBOT Power  0.000  0.000    0.082  0.196
2020-06-25 13:36:22.826 DEBUG    __main__ ROBOT Revs 46.53 47.28
2020-06-25 13:36:22.846 DEBUG    __main__ ROBOT Speed 0.000 0.000 0.000 0.000
2020-06-25 13:36:22.847 DEBUG    __main__ ROBOT Power  0.000  0.000    0.082  0.196
2020-06-25 13:36:23.840 DEBUG    __main__ ROBOT Revs 46.53 47.28
2020-06-25 13:36:23.841 DEBUG    __main__ ROBOT Speed 0.000 0.000 0.000 0.000
2020-06-25 13:36:23.841 DEBUG    __main__ ROBOT Power  0.000  0.000    0.082  0.196
2020-06-25 13:36:24.836 DEBUG    __main__ ROBOT Revs 46.53 47.28
2020-06-25 13:36:24.837 DEBUG    __main__ ROBOT Speed 0.000 0.000 0.000 0.000
2020-06-25 13:36:24.837 DEBUG    __main__ ROBOT Power  0.000  0.000    0.082  0.196
2020-06-25 13:36:25.825 DEBUG    __main__ ROBOT Revs 46.53 47.28
2020-06-25 13:36:25.831 DEBUG    __main__ ROBOT Speed 0.000 0.000 0.000 0.000
2020-06-25 13:36:25.832 DEBUG    __main__ ROBOT Power  0.000  0.000    0.082  0.196
2020-06-25 13:36:26.177 DEBUG    __main__ ROBOT Control t 4.62
2020-06-25 13:36:26.178 DEBUG    __main__ ROBOT Control r -10.82
2020-06-25 13:36:26.184 DEBUG    __main__ ROBOT Control heartbeat
2020-06-25 13:36:26.803 DEBUG    __main__ ROBOT Revs 46.58 47.29
2020-06-25 13:36:26.812 DEBUG    __main__ ROBOT Speed 0.033 0.086 0.028 0.145
2020-06-25 13:36:26.818 DEBUG    __main__ ROBOT Power  0.037  0.337    0.042  0.280
2020-06-25 13:36:27.845 DEBUG    __main__ ROBOT Revs 46.72 47.33
2020-06-25 13:36:27.852 DEBUG    __main__ ROBOT Speed 0.033 0.193 0.037 0.190
2020-06-25 13:36:27.852 DEBUG    __main__ ROBOT Power  0.019  0.407    0.015  0.411
2020-06-25 13:36:28.820 DEBUG    __main__ ROBOT Revs 46.95 47.37
2020-06-25 13:36:28.824 DEBUG    __main__ ROBOT Speed 0.029 0.247 0.038 0.196
2020-06-25 13:36:28.835 DEBUG    __main__ ROBOT Power  0.036  0.201    0.027  0.250
2020-06-25 13:36:29.768 DEBUG    __main__ GPS $GNRMC,113613.00,A,5949.00424,N,01021.69604,E,0.124,,250620,,,R,V*08
2020-06-25 13:36:29.769 DEBUG    __main__ GPS $GNVTG,,T,,M,0.124,N,0.230,K,D*3E
2020-06-25 13:36:29.770 DEBUG    __main__ GPS $GNGGA,113613.00,5949.00424,N,01021.69604,E,4,12,0.61,193.7,M,39.4,M,2.0,3968*62
2020-06-25 13:36:29.771 DEBUG    __main__ GPS $GNRMC,113614.00,A,5949.00426,N,01021.69609,E,0.069,,250620,,,R,V*08
2020-06-25 13:36:29.771 DEBUG    __main__ GPS $GNVTG,,T,,M,0.069,N,0.128,K,D*3C
2020-06-25 13:36:29.771 DEBUG    __main__ GPS $GNGGA,113614.00,5949.00426,N,01021.69609,E,4,12,0.63,193.7,M,39.4,M,3.0,3968*69
2020-06-25 13:36:29.772 DEBUG    __main__ GPS $GNRMC,113615.00,A,5949.00428,N,01021.69614,E,0.119,,250620,,,R,V*0D
2020-06-25 13:36:29.773 DEBUG    __main__ GPS $GNVTG,,T,,M,0.119,N,0.220,K,D*31
2020-06-25 13:36:29.773 DEBUG    __main__ GPS $GNGGA,113615.00,5949.00428,N,01021.69614,E,4,12,0.60,193.7,M,39.4,M,4.0,3968*6E
2020-06-25 13:36:29.774 DEBUG    __main__ GPS $GNRMC,113616.00,A,5949.00430,N,01021.69621,E,0.104,,250620,,,R,V*0D
2020-06-25 13:36:29.774 DEBUG    __main__ GPS $GNVTG,,T,,M,0.104,N,0.192,K,D*37
2020-06-25 13:36:29.774 DEBUG    __main__ GPS $GNGGA,113616.00,5949.00430,N,01021.69621,E,4,12,0.63,193.7,M,39.4,M,5.0,3968*60
2020-06-25 13:36:29.775 DEBUG    __main__ GPS $GNRMC,113617.00,A,5949.00431,N,01021.69625,E,0.025,,250620,,,R,V*0B
2020-06-25 13:36:29.776 DEBUG    __main__ GPS $GNVTG,,T,,M,0.025,N,0.047,K,D*3C
2020-06-25 13:36:29.776 DEBUG    __main__ GPS $GNGGA,113617.00,5949.00431,N,01021.69625,E,4,12,0.68,193.7,M,39.4,M,6.0,3968*6C
2020-06-25 13:36:29.777 DEBUG    __main__ GPS $GNRMC,113618.00,A,5949.00431,N,01021.69624,E,0.010,,250620,,,R,V*03
2020-06-25 13:36:29.777 DEBUG    __main__ GPS $GNVTG,,T,,M,0.010,N,0.018,K,D*30
2020-06-25 13:36:29.777 DEBUG    __main__ GPS $GNGGA,113618.00,5949.00431,N,01021.69624,E,4,12,0.72,193.7,M,39.4,M,7.0,3968*68
2020-06-25 13:36:29.780 DEBUG    __main__ GPS $GNRMC,113619.00,A,5949.00431,N,01021.69624,E,0.004,,250620,,,R,V*07
2020-06-25 13:36:29.780 DEBUG    __main__ GPS $GNVTG,,T,,M,0.004,N,0.008,K,D*34
2020-06-25 13:36:29.780 DEBUG    __main__ GPS $GNGGA,113619.00,5949.00431,N,01021.69624,E,4,12,0.67,193.7,M,39.4,M,8.0,3968*62
2020-06-25 13:36:29.781 DEBUG    __main__ GPS $GNRMC,113620.00,A,5949.00431,N,01021.69624,E,0.003,,250620,,,R,V*0A
2020-06-25 13:36:29.781 DEBUG    __main__ GPS $GNVTG,,T,,M,0.003,N,0.006,K,D*3D
2020-06-25 13:36:29.782 DEBUG    __main__ GPS $GNGGA,113620.00,5949.00431,N,01021.69624,E,4,12,0.67,193.7,M,39.4,M,9.0,3968*69
2020-06-25 13:36:29.783 DEBUG    __main__ GPS $GNRMC,113621.00,A,5949.00430,N,01021.69624,E,0.003,,250620,,,R,V*0A
2020-06-25 13:36:29.784 DEBUG    __main__ GPS $GNVTG,,T,,M,0.003,N,0.005,K,D*3E
2020-06-25 13:36:29.784 DEBUG    __main__ GPS $GNGGA,113621.00,5949.00430,N,01021.69624,E,4,12,0.67,193.7,M,39.4,M,10.0,3968*51
2020-06-25 13:36:29.785 DEBUG    __main__ GPS $GNRMC,113622.00,A,5949.00430,N,01021.69624,E,0.019,,250620,,,R,V*02
2020-06-25 13:36:29.785 DEBUG    __main__ GPS $GNVTG,,T,,M,0.019,N,0.035,K,D*36
2020-06-25 13:36:29.786 DEBUG    __main__ GPS $GNGGA,113622.00,5949.00430,N,01021.69624,E,4,12,0.67,193.7,M,39.4,M,11.0,3968*53
2020-06-25 13:36:29.787 DEBUG    __main__ GPS $GNRMC,113623.00,A,5949.00430,N,01021.69625,E,0.010,,250620,,,R,V*0B
2020-06-25 13:36:29.787 DEBUG    __main__ GPS $GNVTG,,T,,M,0.010,N,0.018,K,D*30
2020-06-25 13:36:29.787 DEBUG    __main__ GPS $GNGGA,113623.00,5949.00430,N,01021.69625,E,4,12,0.72,193.7,M,39.4,M,12.0,3968*54
2020-06-25 13:36:29.789 DEBUG    __main__ GPS $GNRMC,113624.00,A,5949.00431,N,01021.69625,E,0.027,,250620,,,R,V*09
2020-06-25 13:36:29.790 DEBUG    __main__ GPS $GNVTG,,T,,M,0.027,N,0.051,K,D*39
2020-06-25 13:36:29.790 DEBUG    __main__ GPS $GNGGA,113624.00,5949.00431,N,01021.69625,E,4,12,0.72,193.7,M,39.4,M,13.0,3968*53
2020-06-25 13:36:29.791 DEBUG    __main__ GPS $GNRMC,113625.00,A,5949.00431,N,01021.69624,E,0.032,,250620,,,R,V*0D
2020-06-25 13:36:29.791 DEBUG    __main__ GPS $GNVTG,,T,,M,0.032,N,0.058,K,D*34
2020-06-25 13:36:29.791 DEBUG    __main__ GPS $GNGGA,113625.00,5949.00431,N,01021.69624,E,4,12,0.72,193.7,M,39.4,M,14.0,3968*54
2020-06-25 13:36:29.792 DEBUG    __main__ GPS $GNRMC,113626.00,A,5949.00432,N,01021.69624,E,0.021,,250620,,,R,V*0F
2020-06-25 13:36:29.793 DEBUG    __main__ GPS $GNVTG,,T,,M,0.021,N,0.039,K,D*31
2020-06-25 13:36:29.793 DEBUG    __main__ GPS $GNGGA,113626.00,5949.00432,N,01021.69624,E,4,12,0.72,193.7,M,39.4,M,4.0,3968*65
2020-06-25 13:36:29.794 DEBUG    __main__ GPS $GNRMC,113627.00,A,5949.00437,N,01021.69625,E,0.072,,250620,,,R,V*0C
2020-06-25 13:36:29.794 DEBUG    __main__ GPS $GNVTG,,T,,M,0.072,N,0.134,K,D*3B
2020-06-25 13:36:29.795 DEBUG    __main__ GPS $GNGGA,113627.00,5949.00437,N,01021.69625,E,4,12,0.72,193.6,M,39.4,M,1.0,3968*64
2020-06-25 13:36:29.795 DEBUG    __main__ GPS $GNRMC,113628.00,A,5949.00438,N,01021.69628,E,0.097,,250620,,,R,V*0A
2020-06-25 13:36:29.796 DEBUG    __main__ GPS $GNVTG,,T,,M,0.097,N,0.179,K,D*39
2020-06-25 13:36:29.796 DEBUG    __main__ GPS $GNGGA,113628.00,5949.00438,N,01021.69628,E,4,12,0.81,193.6,M,39.4,M,1.0,3968*65
2020-06-25 13:36:29.797 DEBUG    __main__ GPS $GNRMC,113629.00,A,5949.00438,N,01021.69630,E,0.034,,250620,,,R,V*0B
2020-06-25 13:36:29.797 DEBUG    __main__ GPS $GNVTG,,T,,M,0.034,N,0.062,K,D*3B
2020-06-25 13:36:29.797 DEBUG    __main__ GPS $GNGGA,113629.00,5949.00438,N,01021.69630,E,4,12,0.62,193.7,M,39.4,M,1.0,3968*61
2020-06-25 13:36:29.802 DEBUG    play   STATE 18.89 2.81575 3.17681 0.00474695
2020-06-25 13:36:29.946 DEBUG    play   STATE 18.9326 2.82926 3.19537 0.0420945
2020-06-25 13:36:30.067 INFO     control Starting 1593084989.9460428 LineControl(LINESTRING (18.90644469081085 2.9, 19.09784291809889 0.02902659067930383))
2020-06-25 13:36:30.068 DEBUG    play   STATE 18.9491 2.83506 3.20176 0.0405106
2020-06-25 13:36:30.191 DEBUG    play   STATE 18.9845 2.84416 3.21036 0.0398474
2020-06-25 13:36:30.313 DEBUG    play   STATE 19.0982 2.86917 3.22888 0.0371899
2020-06-25 13:36:30.436 DEBUG    play   STATE 19.1072 2.87578 3.23077 0.0384615
2020-06-25 13:36:30.557 DEBUG    play   STATE 19.1078 2.87626 3.23115 0.0397794
2020-06-25 13:36:30.683 DEBUG    play   STATE 19.1078 2.87627 3.23152 0.0399677
2020-06-25 13:36:30.805 DEBUG    play   STATE 19.1019 2.85889 3.23275 0.0429464
2020-06-25 13:36:30.942 DEBUG    play   STATE 19.1018 2.85876 3.23313 0.0400002
2020-06-25 13:36:31.069 DEBUG    play   STATE 19.1099 2.85595 3.23372 0.0361686
2020-06-25 13:36:31.198 DEBUG    play   STATE 19.1136 2.86554 3.23348 0.0374768
2020-06-25 13:36:31.328 DEBUG    play   STATE 19.1104 2.87137 3.23341 0.0414854
2020-06-25 13:36:31.453 DEBUG    play   STATE 19.113 2.88838 3.23271 0.0382354
2020-06-25 13:36:31.575 DEBUG    play   STATE 19.1201 2.90477 3.23188 0.034634
2020-06-25 13:36:31.699 DEBUG    play   STATE 19.1304 2.91774 3.23131 0.0342611
2020-06-25 13:36:31.824 DEBUG    play   STATE 19.1786 2.95993 3.22883 0.00848021
2020-06-25 13:36:31.953 WARNING  asyncio Executing <Task pending name='Task-1' coro=<realtime_control() running at .\record.py:253> wait_for=<Future pending cb=[<TaskWakeupMethWrapper object at 0x11173DD8>()] created at C:\Program Files (x86)\Python38-32\lib\asyncio\base_events.py:422> cb=[_run_until_complete_cb() at C:\Program Files (x86)\Python38-32\lib\asyncio\base_events.py:184] created at C:\Program Files (x86)\Python38-32\lib\asyncio\base_events.py:595> took 2.157 seconds
2020-06-25 13:36:31.954 DEBUG    __main__ Sending controld: t 0.00
2020-06-25 13:36:31.955 DEBUG    __main__ Sending controld: r 14.32
2020-06-25 13:36:31.955 DEBUG    __main__ Sending controld: CUT 20.00
2020-06-25 13:36:31.956 DEBUG    __main__ Sending controld: heartbeat
2020-06-25 13:36:31.956 DEBUG    __main__ Sending controld: t 0.00
2020-06-25 13:36:31.956 DEBUG    __main__ Sending controld: r -14.32
2020-06-25 13:36:31.956 DEBUG    __main__ Sending controld: CUT 20.00
2020-06-25 13:36:31.957 DEBUG    __main__ Sending controld: heartbeat
2020-06-25 13:36:31.957 DEBUG    __main__ Sending controld: t 0.00
2020-06-25 13:36:31.957 DEBUG    __main__ Sending controld: r -14.32
2020-06-25 13:36:31.958 DEBUG    __main__ Sending controld: CUT 20.00
2020-06-25 13:36:31.958 DEBUG    __main__ Sending controld: heartbeat
2020-06-25 13:36:31.958 DEBUG    __main__ Sending controld: t 0.00
2020-06-25 13:36:31.958 DEBUG    __main__ Sending controld: r -14.32
2020-06-25 13:36:31.959 DEBUG    __main__ Sending controld: CUT 20.00
2020-06-25 13:36:31.959 DEBUG    __main__ Sending controld: heartbeat
2020-06-25 13:36:31.959 DEBUG    __main__ Sending controld: t 0.03
2020-06-25 13:36:31.960 DEBUG    __main__ Sending controld: r -14.32
2020-06-25 13:36:31.960 DEBUG    __main__ Sending controld: CUT 20.00
2020-06-25 13:36:31.960 DEBUG    __main__ Sending controld: heartbeat
2020-06-25 13:36:31.960 DEBUG    __main__ Sending controld: t 0.09
2020-06-25 13:36:31.961 DEBUG    __main__ Sending controld: r -14.32
2020-06-25 13:36:31.961 DEBUG    __main__ Sending controld: CUT 20.00
2020-06-25 13:36:31.961 DEBUG    __main__ Sending controld: heartbeat
2020-06-25 13:36:31.962 DEBUG    __main__ Sending controld: t 0.10
2020-06-25 13:36:31.962 DEBUG    __main__ Sending controld: r -14.32
2020-06-25 13:36:31.962 DEBUG    __main__ Sending controld: CUT 20.00
2020-06-25 13:36:31.963 DEBUG    __main__ Sending controld: heartbeat
2020-06-25 13:36:31.964 DEBUG    __main__ Sending controld: t 0.10
2020-06-25 13:36:31.964 DEBUG    __main__ Sending controld: r -14.32
2020-06-25 13:36:31.965 DEBUG    __main__ Sending controld: CUT 20.00
2020-06-25 13:36:31.965 DEBUG    __main__ Sending controld: heartbeat
2020-06-25 13:36:31.965 DEBUG    __main__ Sending controld: t 0.05
2020-06-25 13:36:31.966 DEBUG    __main__ Sending controld: r -14.32
2020-06-25 13:36:31.966 DEBUG    __main__ Sending controld: CUT 20.00
2020-06-25 13:36:31.966 DEBUG    __main__ Sending controld: heartbeat
2020-06-25 13:36:31.967 DEBUG    __main__ Sending controld: t 0.05
2020-06-25 13:36:31.967 DEBUG    __main__ Sending controld: r -14.32
2020-06-25 13:36:31.967 DEBUG    __main__ Sending controld: CUT 20.00
2020-06-25 13:36:31.968 DEBUG    __main__ Sending controld: heartbeat
2020-06-25 13:36:31.968 DEBUG    __main__ Sending controld: t 0.12
2020-06-25 13:36:31.968 DEBUG    __main__ Sending controld: r -14.32
2020-06-25 13:36:31.969 DEBUG    __main__ Sending controld: CUT 20.00
2020-06-25 13:36:31.969 DEBUG    __main__ Sending controld: heartbeat
2020-06-25 13:36:31.969 DEBUG    __main__ Sending controld: t 0.18
2020-06-25 13:36:31.970 DEBUG    __main__ Sending controld: r -14.32
2020-06-25 13:36:31.970 DEBUG    __main__ Sending controld: CUT 20.00
2020-06-25 13:36:31.970 DEBUG    __main__ Sending controld: heartbeat
2020-06-25 13:36:31.971 DEBUG    __main__ Sending controld: t 0.13
2020-06-25 13:36:31.971 DEBUG    __main__ Sending controld: r -14.32
2020-06-25 13:36:31.971 DEBUG    __main__ Sending controld: CUT 20.00
2020-06-25 13:36:31.972 DEBUG    __main__ Sending controld: heartbeat
2020-06-25 13:36:31.972 DEBUG    __main__ Sending controld: t 0.19
2020-06-25 13:36:31.972 DEBUG    __main__ Sending controld: r -14.32
2020-06-25 13:36:31.972 DEBUG    __main__ Sending controld: CUT 20.00
2020-06-25 13:36:31.974 DEBUG    __main__ Sending controld: heartbeat
2020-06-25 13:36:31.975 DEBUG    __main__ Sending controld: t 0.38
2020-06-25 13:36:31.975 DEBUG    __main__ Sending controld: r -14.32
2020-06-25 13:36:31.975 DEBUG    __main__ Sending controld: CUT 20.00
2020-06-25 13:36:31.975 DEBUG    __main__ Sending controld: heartbeat
2020-06-25 13:36:31.976 DEBUG    __main__ Sending controld: t 0.87
2020-06-25 13:36:31.976 DEBUG    __main__ Sending controld: r -14.32
2020-06-25 13:36:31.976 DEBUG    __main__ Sending controld: CUT 20.00
2020-06-25 13:36:31.977 DEBUG    __main__ Sending controld: heartbeat
2020-06-25 13:36:31.977 DEBUG    __main__ Sending controld: t 7.17
2020-06-25 13:36:31.977 DEBUG    __main__ Sending controld: r -12.30
2020-06-25 13:36:31.977 DEBUG    __main__ Sending controld: CUT 20.00
2020-06-25 13:36:31.978 DEBUG    __main__ Sending controld: heartbeat
2020-06-25 13:36:31.984 DEBUG    __main__ GPS $GNRMC,113630.00,A,5949.00438,N,01021.69634,E,0.053,,250620,,,R,V*06
2020-06-25 13:36:31.985 DEBUG    __main__ GPS $GNVTG,,T,,M,0.053,N,0.099,K,D*3E
2020-06-25 13:36:31.986 DEBUG    __main__ GPS $GNGGA,113630.00,5949.00438,N,01021.69634,E,4,12,0.64,193.7,M,39.4,M,1.0,3968*6B
2020-06-25 13:36:31.987 DEBUG    __main__ GPS $GNRMC,113631.00,A,5949.00440,N,01021.69637,E,0.022,,250620,,,R,V*0D
2020-06-25 13:36:31.987 DEBUG    __main__ GPS $GNVTG,,T,,M,0.022,N,0.040,K,D*3C
2020-06-25 13:36:31.987 DEBUG    __main__ GPS $GNGGA,113631.00,5949.00440,N,01021.69637,E,4,12,0.64,193.7,M,39.4,M,1.0,3968*66
2020-06-25 13:36:31.990 DEBUG    play   STATE 19.2381 2.9682 3.61255 -0.0273121
2020-06-25 13:36:32.113 DEBUG    play   STATE 19.2722 2.99151 3.47181 0.0264792
2020-06-25 13:36:32.254 WARNING  asyncio Executing <Task pending name='Task-1' coro=<realtime_control() running at .\record.py:253> wait_for=<Future pending cb=[<TaskWakeupMethWrapper object at 0x10E90BB0>()] created at C:\Program Files (x86)\Python38-32\lib\asyncio\base_events.py:422> cb=[_run_until_complete_cb() at C:\Program Files (x86)\Python38-32\lib\asyncio\base_events.py:184] created at C:\Program Files (x86)\Python38-32\lib\asyncio\base_events.py:595> took 0.266 seconds
2020-06-25 13:36:32.255 DEBUG    __main__ ROBOT Revs 47.14 47.41
2020-06-25 13:36:32.256 DEBUG    __main__ ROBOT Speed 0.037 0.202 0.038 0.197
2020-06-25 13:36:32.256 DEBUG    __main__ ROBOT Power  0.034  0.303    0.032  0.307
2020-06-25 13:36:32.256 DEBUG    __main__ ROBOT Revs 47.32 47.45
2020-06-25 13:36:32.257 DEBUG    __main__ ROBOT Speed 0.037 0.239 0.038 0.197
2020-06-25 13:36:32.257 DEBUG    __main__ ROBOT Power  0.028  0.329    0.027  0.369
2020-06-25 13:36:32.257 DEBUG    __main__ ROBOT Control .
2020-06-25 13:36:32.257 DEBUG    __main__ ROBOT Revs 47.40 47.46
2020-06-25 13:36:32.258 DEBUG    __main__ ROBOT Speed 0.000 -0.012 0.000 0.000
2020-06-25 13:36:32.258 DEBUG    __main__ ROBOT Power  0.000  0.000    0.031  0.332
2020-06-25 13:36:32.258 DEBUG    __main__ ROBOT Control t 0.00
2020-06-25 13:36:32.259 DEBUG    __main__ Sending controld: t 3.22
2020-06-25 13:36:32.261 DEBUG    __main__ Sending controld: r 14.32
2020-06-25 13:36:32.261 DEBUG    __main__ Sending controld: CUT 20.00
2020-06-25 13:36:32.261 DEBUG    __main__ Sending controld: heartbeat
2020-06-25 13:36:32.261 DEBUG    __main__ Sending controld: t 7.24
2020-06-25 13:36:32.262 DEBUG    __main__ Sending controld: r 12.23
2020-06-25 13:36:32.262 DEBUG    __main__ Sending controld: CUT 20.00
2020-06-25 13:36:32.262 DEBUG    __main__ Sending controld: heartbeat
2020-06-25 13:36:32.270 DEBUG    __main__ ROBOT Control r 14.32
2020-06-25 13:36:32.271 DEBUG    __main__ ROBOT Control heartbeat
2020-06-25 13:36:32.271 DEBUG    __main__ ROBOT Control t 0.00
2020-06-25 13:36:32.274 DEBUG    __main__ ROBOT Control r -14.32
2020-06-25 13:36:32.280 DEBUG    __main__ ROBOT Control heartbeat
2020-06-25 13:36:32.321 DEBUG    __main__ ROBOT Control t 0.00
2020-06-25 13:36:32.330 DEBUG    __main__ ROBOT Control r -14.32
2020-06-25 13:36:32.339 DEBUG    __main__ ROBOT Control heartbeat
2020-06-25 13:36:32.345 DEBUG    __main__ ROBOT Control t 0.00
2020-06-25 13:36:32.361 DEBUG    __main__ ROBOT Control r -14.32
2020-06-25 13:36:32.372 DEBUG    __main__ ROBOT Control heartbeat
2020-06-25 13:36:32.378 DEBUG    __main__ ROBOT Control t 0.03
2020-06-25 13:36:32.387 DEBUG    __main__ ROBOT Control r -14.32
2020-06-25 13:36:32.397 DEBUG    __main__ ROBOT Control heartbeat
2020-06-25 13:36:32.406 DEBUG    __main__ ROBOT Control t 0.09
2020-06-25 13:36:32.419 DEBUG    __main__ ROBOT Control r -14.32
2020-06-25 13:36:32.424 DEBUG    __main__ ROBOT Control heartbeat
2020-06-25 13:36:32.436 DEBUG    __main__ ROBOT Control t 0.10
2020-06-25 13:36:32.446 DEBUG    __main__ ROBOT Control r -14.32
2020-06-25 13:36:32.459 DEBUG    __main__ ROBOT Control heartbeat
2020-06-25 13:36:32.463 DEBUG    __main__ ROBOT Control t 0.10
2020-06-25 13:36:32.474 DEBUG    __main__ ROBOT Control r -14.32
2020-06-25 13:36:32.480 DEBUG    __main__ GPS $GNRMC,113632.00,A,5949.00441,N,01021.69638,E,0.018,,250620,,,R,V*09
2020-06-25 13:36:32.480 DEBUG    __main__ GPS $GNVTG,,T,,M,0.018,N,0.032,K,D*30
2020-06-25 13:36:32.480 DEBUG    __main__ GPS $GNGGA,113632.00,5949.00441,N,01021.69638,E,4,12,0.62,193.7,M,39.4,M,1.0,3968*6D
2020-06-25 13:36:32.482 DEBUG    play   STATE 19.2917 3.00735 3.57377 -0.0422678
2020-06-25 13:36:32.609 WARNING  asyncio Executing <Task pending name='Task-1' coro=<realtime_control() running at .\record.py:253> wait_for=<Future pending cb=[<TaskWakeupMethWrapper object at 0x10ED9FA0>()] created at C:\Program Files (x86)\Python38-32\lib\asyncio\base_events.py:422> cb=[_run_until_complete_cb() at C:\Program Files (x86)\Python38-32\lib\asyncio\base_events.py:184] created at C:\Program Files (x86)\Python38-32\lib\asyncio\base_events.py:595> took 0.125 seconds
2020-06-25 13:36:32.610 DEBUG    __main__ Sending controld: t 2.58
2020-06-25 13:36:32.611 DEBUG    __main__ Sending controld: r 14.32
2020-06-25 13:36:32.611 DEBUG    __main__ Sending controld: CUT 20.00
2020-06-25 13:36:32.612 DEBUG    __main__ Sending controld: heartbeat
2020-06-25 13:36:32.618 DEBUG    __main__ ROBOT Control heartbeat
2020-06-25 13:36:32.619 DEBUG    __main__ ROBOT Control t 0.05
2020-06-25 13:36:32.620 DEBUG    __main__ ROBOT Control r -14.32
2020-06-25 13:36:32.620 DEBUG    __main__ ROBOT Control heartbeat
2020-06-25 13:36:32.620 DEBUG    __main__ ROBOT Control t 0.05
2020-06-25 13:36:32.621 DEBUG    __main__ ROBOT Control r -14.32
2020-06-25 13:36:32.621 DEBUG    __main__ ROBOT Control heartbeat
2020-06-25 13:36:32.621 DEBUG    __main__ ROBOT Control t 0.12
2020-06-25 13:36:32.621 DEBUG    __main__ ROBOT Control r -14.32
2020-06-25 13:36:32.622 DEBUG    __main__ ROBOT Control heartbeat
2020-06-25 13:36:32.622 DEBUG    __main__ ROBOT Control t 0.18
2020-06-25 13:36:32.622 DEBUG    __main__ ROBOT Control r -14.32
2020-06-25 13:36:32.622 DEBUG    __main__ ROBOT Control heartbeat
2020-06-25 13:36:32.628 DEBUG    __main__ ROBOT Control t 0.13
2020-06-25 13:36:32.632 DEBUG    __main__ ROBOT Control r -14.32
2020-06-25 13:36:32.662 DEBUG    __main__ ROBOT Control heartbeat
2020-06-25 13:36:32.672 DEBUG    __main__ ROBOT Control t 0.19
2020-06-25 13:36:32.682 DEBUG    __main__ ROBOT Control r -14.32
2020-06-25 13:36:32.690 DEBUG    __main__ ROBOT Control heartbeat
2020-06-25 13:36:32.707 DEBUG    __main__ ROBOT Control t 0.38
2020-06-25 13:36:32.720 DEBUG    __main__ ROBOT Control r -14.32
2020-06-25 13:36:32.741 DEBUG    __main__ ROBOT Control heartbeat
2020-06-25 13:36:32.745 DEBUG    __main__ ROBOT Control t 0.87
2020-06-25 13:36:32.764 DEBUG    __main__ ROBOT Control r -14.32
2020-06-25 13:36:32.765 DEBUG    __main__ ROBOT Control heartbeat
2020-06-25 13:36:32.777 DEBUG    __main__ ROBOT Control t 7.17
2020-06-25 13:36:32.786 DEBUG    __main__ ROBOT Control r -12.30
2020-06-25 13:36:32.801 DEBUG    __main__ ROBOT Control heartbeat
2020-06-25 13:36:32.806 DEBUG    __main__ ROBOT Control t 3.22
2020-06-25 13:36:32.822 DEBUG    __main__ ROBOT Control r 14.32
2020-06-25 13:36:32.826 DEBUG    __main__ ROBOT Control heartbeat
2020-06-25 13:36:32.838 DEBUG    __main__ ROBOT Control t 7.24
2020-06-25 13:36:32.842 DEBUG    __main__ ROBOT Control r 12.23
2020-06-25 13:36:32.855 DEBUG    __main__ ROBOT Control heartbeat
2020-06-25 13:36:32.862 DEBUG    __main__ ROBOT Control t 2.58
2020-06-25 13:36:32.877 DEBUG    __main__ ROBOT Control r 14.32
2020-06-25 13:36:32.883 DEBUG    __main__ ROBOT Control heartbeat
2020-06-25 13:36:32.893 DEBUG    __main__ ROBOT Revs 47.47 47.49
2020-06-25 13:36:32.898 DEBUG    __main__ ROBOT Speed 0.095 0.111 0.142 0.054
2020-06-25 13:36:32.912 DEBUG    __main__ ROBOT Power  0.134  0.129    0.088  0.184
2020-06-25 13:36:33.481 DEBUG    __main__ GPS $GNRMC,113633.00,A,5949.00442,N,01021.69638,E,0.050,,250620,,,R,V*07
2020-06-25 13:36:33.482 DEBUG    __main__ GPS $GNVTG,,T,,M,0.050,N,0.092,K,D*36
2020-06-25 13:36:33.482 DEBUG    __main__ GPS $GNGGA,113633.00,5949.00442,N,01021.69638,E,4,12,0.65,193.7,M,39.4,M,1.0,3968*68
2020-06-25 13:36:33.484 DEBUG    play   STATE 19.2995 3.01666 3.28643 -0.00905345
2020-06-25 13:36:33.609 WARNING  asyncio Executing <Task pending name='Task-1' coro=<realtime_control() running at .\record.py:253> wait_for=<Future pending cb=[<TaskWakeupMethWrapper object at 0x10E90B98>()] created at C:\Program Files (x86)\Python38-32\lib\asyncio\base_events.py:422> cb=[_run_until_complete_cb() at C:\Program Files (x86)\Python38-32\lib\asyncio\base_events.py:184] created at C:\Program Files (x86)\Python38-32\lib\asyncio\base_events.py:595> took 0.125 seconds
2020-06-25 13:36:33.610 DEBUG    __main__ Sending controld: t 14.42
2020-06-25 13:36:33.611 DEBUG    __main__ Sending controld: r 2.83
2020-06-25 13:36:33.612 DEBUG    __main__ Sending controld: CUT 20.00
2020-06-25 13:36:33.612 DEBUG    __main__ Sending controld: heartbeat
2020-06-25 13:36:33.781 DEBUG    __main__ ROBOT Revs 47.51 47.57
2020-06-25 13:36:33.810 DEBUG    __main__ ROBOT Speed 0.107 0.000 0.167 -0.027
2020-06-25 13:36:33.815 DEBUG    __main__ ROBOT Power  0.526 -0.004    0.468  0.023
2020-06-25 13:36:33.953 DEBUG    __main__ ROBOT Control t 14.42
2020-06-25 13:36:33.960 DEBUG    __main__ ROBOT Control r 2.83
2020-06-25 13:36:33.987 DEBUG    __main__ ROBOT Control heartbeat
2020-06-25 13:36:34.491 DEBUG    __main__ GPS $GNRMC,113634.00,A,5949.00444,N,01021.69640,E,0.094,,250620,,,R,V*01
2020-06-25 13:36:34.492 DEBUG    __main__ GPS $GNVTG,,T,,M,0.094,N,0.175,K,D*36
2020-06-25 13:36:34.492 DEBUG    __main__ GPS $GNGGA,113634.00,5949.00444,N,01021.69640,E,4,12,0.62,193.7,M,39.4,M,1.0,3968*61
2020-06-25 13:36:34.494 DEBUG    play   STATE 19.2912 3.03785 3.13796 0.0271997
2020-06-25 13:36:34.627 WARNING  asyncio Executing <Task pending name='Task-1' coro=<realtime_control() running at .\record.py:253> wait_for=<Future pending cb=[<TaskWakeupMethWrapper object at 0x10EADC58>()] created at C:\Program Files (x86)\Python38-32\lib\asyncio\base_events.py:422> cb=[_run_until_complete_cb() at C:\Program Files (x86)\Python38-32\lib\asyncio\base_events.py:184] created at C:\Program Files (x86)\Python38-32\lib\asyncio\base_events.py:595> took 0.141 seconds
2020-06-25 13:36:34.628 DEBUG    __main__ Sending controld: t 12.65
2020-06-25 13:36:34.629 DEBUG    __main__ Sending controld: r -5.92
2020-06-25 13:36:34.630 DEBUG    __main__ Sending controld: CUT 20.00
2020-06-25 13:36:34.630 DEBUG    __main__ Sending controld: heartbeat
2020-06-25 13:36:34.680 DEBUG    __main__ ROBOT Control t 12.65
2020-06-25 13:36:34.729 DEBUG    __main__ ROBOT Control r -5.92
2020-06-25 13:36:34.755 DEBUG    __main__ ROBOT Control heartbeat
2020-06-25 13:36:34.791 DEBUG    __main__ ROBOT Revs 47.64 47.80
2020-06-25 13:36:34.812 DEBUG    __main__ ROBOT Speed 0.374 0.280 0.332 0.281
2020-06-25 13:36:34.833 DEBUG    __main__ ROBOT Power  0.613  0.075    0.654  0.073
2020-06-25 13:36:35.487 DEBUG    __main__ GPS $GNRMC,113635.00,A,5949.00448,N,01021.69644,E,0.136,,250620,,,R,V*01
2020-06-25 13:36:35.488 DEBUG    __main__ GPS $GNVTG,,T,,M,0.136,N,0.251,K,D*3A
2020-06-25 13:36:35.489 DEBUG    __main__ GPS $GNGGA,113635.00,5949.00448,N,01021.69644,E,4,12,0.67,193.7,M,39.4,M,1.0,3968*6D
2020-06-25 13:36:35.491 DEBUG    play   STATE 19.3252 3.07597 3.12228 0.00931851
2020-06-25 13:36:35.623 WARNING  asyncio Executing <Task pending name='Task-1' coro=<realtime_control() running at .\record.py:253> wait_for=<Future pending cb=[<TaskWakeupMethWrapper object at 0x10A1ACD0>()] created at C:\Program Files (x86)\Python38-32\lib\asyncio\base_events.py:422> cb=[_run_until_complete_cb() at C:\Program Files (x86)\Python38-32\lib\asyncio\base_events.py:184] created at C:\Program Files (x86)\Python38-32\lib\asyncio\base_events.py:595> took 0.141 seconds
2020-06-25 13:36:35.624 DEBUG    __main__ Sending controld: t 12.72
2020-06-25 13:36:35.625 DEBUG    __main__ Sending controld: r -5.81
2020-06-25 13:36:35.626 DEBUG    __main__ Sending controld: CUT 20.00
2020-06-25 13:36:35.626 DEBUG    __main__ Sending controld: heartbeat
2020-06-25 13:36:35.664 DEBUG    __main__ ROBOT Control t 12.72
2020-06-25 13:36:35.678 DEBUG    __main__ ROBOT Control r -5.81
2020-06-25 13:36:35.690 DEBUG    __main__ ROBOT Control heartbeat
2020-06-25 13:36:35.773 DEBUG    __main__ ROBOT Revs 47.90 48.11
2020-06-25 13:36:35.782 DEBUG    __main__ ROBOT Speed 0.350 0.329 0.286 0.355
2020-06-25 13:36:35.795 DEBUG    __main__ ROBOT Power  0.529  0.420    0.591  0.395
2020-06-25 13:36:36.485 DEBUG    __main__ GPS $GNRMC,113636.00,A,5949.00453,N,01021.69650,E,0.144,,250620,,,R,V*08
2020-06-25 13:36:36.486 DEBUG    __main__ GPS $GNVTG,,T,,M,0.144,N,0.267,K,D*3A
2020-06-25 13:36:36.486 DEBUG    __main__ GPS $GNGGA,113636.00,5949.00453,N,01021.69650,E,4,12,0.70,193.7,M,39.4,M,1.0,3968*67
2020-06-25 13:36:36.489 DEBUG    play   STATE 19.4046 3.13139 3.06337 -0.00631822
2020-06-25 13:36:36.616 WARNING  asyncio Executing <Task pending name='Task-1' coro=<realtime_control() running at .\record.py:253> wait_for=<Future pending cb=[<TaskWakeupMethWrapper object at 0x10EAD1A8>()] created at C:\Program Files (x86)\Python38-32\lib\asyncio\base_events.py:422> cb=[_run_until_complete_cb() at C:\Program Files (x86)\Python38-32\lib\asyncio\base_events.py:184] created at C:\Program Files (x86)\Python38-32\lib\asyncio\base_events.py:595> took 0.125 seconds
2020-06-25 13:36:36.617 DEBUG    __main__ Sending controld: t 10.62
2020-06-25 13:36:36.618 DEBUG    __main__ Sending controld: r -8.42
2020-06-25 13:36:36.618 DEBUG    __main__ Sending controld: CUT 20.00
2020-06-25 13:36:36.619 DEBUG    __main__ Sending controld: heartbeat
2020-06-25 13:36:36.658 DEBUG    __main__ ROBOT Control t 10.62
2020-06-25 13:36:36.665 DEBUG    __main__ ROBOT Control r -8.42
2020-06-25 13:36:36.677 DEBUG    __main__ ROBOT Control heartbeat
2020-06-25 13:36:36.806 DEBUG    __main__ ROBOT Revs 48.24 48.42
2020-06-25 13:36:36.811 DEBUG    __main__ ROBOT Speed 0.292 0.333 0.266 0.357
2020-06-25 13:36:36.815 DEBUG    __main__ ROBOT Power  0.448  0.559    0.474  0.535
2020-06-25 13:36:37.480 DEBUG    __main__ GPS $GNRMC,113637.00,A,5949.00458,N,01021.69655,E,0.189,,250620,,,R,V*06
2020-06-25 13:36:37.481 DEBUG    __main__ GPS $GNVTG,,T,,M,0.189,N,0.351,K,D*3F
2020-06-25 13:36:37.481 DEBUG    __main__ GPS $GNGGA,113637.00,5949.00458,N,01021.69655,E,4,12,0.70,193.7,M,39.4,M,1.0,3968*68
2020-06-25 13:36:37.483 DEBUG    play   STATE 19.4594 3.17678 3.08646 0.00656105
